RestaurantID,Name,CuisineType,Pricing_for_2,Restaurant_Phone,OperatingHours,LocationID,ActiveFlag,OpenStatus,Locality,Restaurant_Address,Latitude,Longitude,CreatedDate,ModifiedDate
1,Rustom's,"Parsi, Street Food, North Indian, Desserts, Beverages",2100,9069050000,8:00 AM - 16:00 PM,1,Yes,Open,"ITO, New Delhi","Delhi Parsi Anjuman, LNJP Colony, Bahadur Shah Zafar Road, Near Maulana Azad Medical College Campus, ITO, New Delhi",28.638167,77.240472,19:43.9,03:26.3
2,Cafe Lota,"Cafe, South Indian, North Indian, Beverages",1200,8320181288,10:00 AM - 18:00 PM,1,Yes,Open,"Pragati Maidan, New Delhi","National Crafts Museum, Gate 2, Bhairon Marg, Pragati Maidan, New Delhi",28.613429,77.242471,40:09.6,15:48.1
3,Dum-Pukht - ITC Maurya,"Mughlai, North Indian, Desserts",5000,6192814393,9:00 AM - 17:00 PM,1,Yes,Open,"ITC Maurya, Chanakyapuri, New Delhi","ITC Maurya, Chanakyapuri, New Delhi",28.5982003,77.17366073,19:49.5,18:47.6
4,Burma Burma,"Asian, Burmese, Bubble Tea, Desserts, Salad",1600,9145897039,11:00 AM - 19:00 PM,1,Yes,Open,"Cyber Hub, DLF Cyber City, Gurgaon","Shop 6, Ground Floor, Building 8, Tower C, Cyber Hub, DLF Cyber City, Gurgaon",28.49446439,77.08853245,44:52.8,08:47.3
5,The Big Chill,"Continental, American, Italian",1500,6799831287,9:00 AM - 17:00 PM,1,Yes,Open,"Khan Market, New Delhi","68-A, Khan Market, New Delhi",28.60035007,77.22749334,43:11.3,32:50.4
